,STATION_NUMBER,STATION_NAME,LATITUDE,LONGITUDE,YEAR_FROM,YEAR_TO,RECORD_LENGTH,temp_name
15,08HB082,COMOX LAKE NEAR COURTENAY,49.64213943481445,-125.09165954589844,1993,2018,26,COMOX LAKE
16,08MH149,COQUITLAM LAKE FOREBAY,49.35573959350586,-122.7791976928711,1984,2018,35,COQUITLAM LAKE FOREBAY
21,08HA009,COWICHAN LAKE NEAR LAKE COWICHAN,48.82440185546875,-124.06153106689452,1913,2018,76,COWICHAN LAKE
24,08HC006,CREST LAKE NEAR HIGHWAY 28,49.841068267822266,-125.90670776367188,1997,2018,9,CREST LAKE
25,08HC006,CREST LAKE NEAR HIGHWAY 28,49.841068267822266,-125.90670776367188,1998,2018,21,CREST LAKE
43,08NH067,KOOTENAY LAKE AT KUSKONOOK,49.29882049560547,-116.65956115722656,1936,2018,82,KOOTENAY LAKE
47,08JB007,NADINA LAKE NEAR NORALEE,53.90415954589844,-126.97083282470705,1964,2018,55,NADINA LAKE
50,08LG046,NICOLA LAKE NEAR QUILCHENA,50.158390045166016,-120.5251007080078,1933,2018,69,NICOLA LAKE
